[
    {
        "title": "桃欣天然氣股份有限公司",
        "address": "地址: 桃園市桃園區法治路10號",
        "telphone": "電話: 03-335-2191 轉 500",
        "hours": "辦公時間：8:30 - 17:00",
        "figure": "fig/AiCity-918-桃欣天然氣.png",
        "link": "http://www.shintaogas.com.tw/Home/home/default.aspx",
        "category": "水電瓦斯"
    },
    {
        "title": "台灣自來水公司第二區管理處龜山服務所",
        "address": "地址:桃園市龜山區光峰路2號",
        "telphone": "電話: 03-329-4999",
        "hours": "辦公時間：8:00 - 17:00",
        "figure": "fig/AiCity-918-自來水公司.png",
        "link": "https://www2.water.gov.tw/ch2/00index/home.asp",
        "category": "水電瓦斯"
    },
    {
        "title": "台灣電力公司林口服務所",
        "address": "地址:桃園市龜山區文化一路51號",
        "telphone": "聯絡電話: 03-211-1911",
        "hours": "辦公時間：8:00 - 17:00",
        "figure": "fig/AiCity-918-電力公司.png",
        "link": "https://branch.taipower.com.tw/Content/Messagess/contents.aspx?&SiteID=564766277367364243&MmmID=564766315067672172&MSID=616164715712543701",
        "category": "水電瓦斯"
    },
    {
        "title": "特麗自助洗車",
        "address": "地址：33382桃園市龜山區文化一路44號",
        "telphone": "電話：080-088-2717",
        "hours": "營業時間：24 H",
        "figure": "fig/AiCity-918-特麗.jpg",
        "link": "http://www.supershine.com.tw/",
        "category": "加油洗車"
    },
    {
        "title": "Smile 速邁樂",
        "address": "地址：333桃園市龜山區文化一路86之5號",
        "telphone": "電話：03-327-3008",
        "hours": "營業時間：24 H",
        "figure": "fig/AiCity-918-速邁樂.jpeg",
        "link": "http://www.mech-smile.com.tw/",
        "category": "加油洗車"
    },
    {
        "title": "台灣中油文一加油站(加盟)",
        "address": "地址：333桃園市龜山區文化一路73號",
        "telphone": "電話： 03-328-2115",
        "hours": "營業時間：07:00 - 22:00",
        "figure": "fig/AiCity-918-中油.jpg",
        "link": "https://www.cpc.com.tw/#",
        "category": "加油洗車"
    },
    {
        "title": "龜山文化郵局",
        "address": "地址：333桃園市龜山區文昌一街102號",
        "telphone": "電話：03-328-2617",
        "hours": "營業時間：郵務 08:30 - 17:30，儲匯 08:30 - 17:00",
        "figure": "fig/AiCity-918-郵局.png",
        "link": "https://www.post.gov.tw/post/internet/I_location/index_post.jsp?prsb_no=012125-3",
        "category": "電信郵局"
    },
    {
        "title": "中華電信 龜山文化門市",
        "address": "地址：33333桃園市龜山區文化二路38-8號",
        "telphone": "電話：03-327-0303",
        "hours": "營業時間：12:00 - 21:00",
        "figure": "fig/AiCity-918-中華電信.jpeg",
        "link": "https://www.cht.com.tw/home/cht/about-cht/business-group/store-locator",
        "category": "電信郵局"
    },
    {
        "title": "遠傳林口長庚直營門市",
        "address": "地址：333桃園市龜山區復興一路128號",
        "telphone": "電話：03-211-4010",
        "hours": "營業時間：12:00 - 21:30",
        "figure": "fig/AiCity-918-遠傳.jpeg",
        "link": "https://www.fetnet.net/content/cbu/tw/index.html",
        "category": "電信郵局"
    },
    {
        "title": "台灣之星 龜山文化服務中心",
        "address": "地址：333桃園市龜山區文化二路65號",
        "telphone": "電話：0968-744-248",
        "hours": "營業時間：12:30 - 21:00",
        "figure": "fig/AiCity-918-台灣之星.png",
        "link": "https://www.tstartel.com/CWS/",
        "category": "電信郵局"
    },
    {
        "title": "凱擘大寬頻 / 北桃園數位有線電視",
        "address": "地址：桃園市桃園區大興西路二段65號5樓",
        "telphone": "電話：03-250-7794, 03-261-8968, 03-301-7131",
        "hours": "營業時間：09:00 - 18:00",
        "figure": "fig/AiCity-918-凱擘.jpeg",
        "link": "https://ntyc.kbro.com.tw/K09/cm-promo-more-2_3_0_603_160.html",
        "category": "電信郵局"
    },
    {
        "title": "JGNet 宅急網",
        "address": "地址：桃園市桃園區中正路1221號2樓",
        "telphone": "電話：03-355-7460",
        "hours": "營業時間： 週一~週六 10:00 - 20:00, 週日 10:00 - 18:00",
        "figure": "fig/AiCity-918-宅急網.png",
        "link": "https://www.jgnet.tw/",
        "category": "電信郵局"
    },
    {
        "title": "Kingnet 今網寬頻",
        "address": "",
        "telphone": "電話: 03-412-8166",
        "hours": "週一至週五​ 09：00~24：00, 例假日 09：00~22：00",
        "figure": "fig/AiCity-918-今網寬頻.png",
        "link": "https://top1.kingnet.net.tw/",
        "category": "電信郵局"
    },
    {
        "title": "原總汽車有限公司：汽車驗車, 汽車保養與維修",
        "address": "地址：333桃園市龜山區復興三路32號",
        "telphone": "電話：03-396-0666",
        "hours": "營業時間：週1～5: 08:00 - 18:00, 週6: 08:00 - 12:00",
        "figure": "fig/AiCity-918-原總汽車.gif",
        "link": "https://www.facebook.com/69oil",
        "category": "汽車保養"
    },
    {
        "title": "Toyota 豐田汽車",
        "address": "地址：333桃園市龜山區文化三路358號",
        "telphone": "電話：0978-793-288",
        "hours": "營業時間：08:30 - 17:30",
        "figure": "fig/AiCity-918-toyota.png",
        "link": "https://www.toyota.com.tw/index.aspx",
        "category": "汽車保養"
    },
    {
        "title": "康福搬家貨運公司 ( 包含鋼琴搬運）",
        "address": "地址：桃園分公司-桃園市桃園區寶慶路312號",
        "telphone": "電話：0800-888-883, 03-301-8100",
        "hours": "營業時間： 09:00 - 19:00",
        "figure": "fig/AiCity-918-康福.jpeg",
        "link": "https://www.0800222222.com/index.php?lang=tw",
        "category": "搬家公司"
    },
    {
        "title": "",
        "address": "",
        "telphone": "",
        "hours": "",
        "figure": "fig/AiCity-918-",
        "link": "",
        "category": ""
    },
    {
        "title": "",
        "address": "",
        "telphone": "",
        "hours": "",
        "figure": "fig/AiCity-918-",
        "link": "",
        "category": ""
    }
]