[
    {
        "title": "Global Mall A8 環球購物中心",
        "address": "地址：333桃園市龜山區復興一路8號",
        "telphone": "電話：03-328-7599",
        "hours": "營業時間： 11:00 - 22:00",
        "figure": "fig/AiCity-913-GlobalMall-2A8.jpg",
        "link": "https://www.twglobalmall.com/web/global/index.html?shopid=TWA4",
        "category": "購物中心"
    },
    {
        "title": "POYA寶雅-龜山文化店",
        "address": "地址：333桃園市龜山區文化二路36號",
        "telphone": "電話：03-327-5050",
        "hours": "營業時間：10:00 - 22:30",
        "figure": "fig/AiCity-913-Poya-2.png",
        "link": "https://www.poya.com.tw/",
        "category": "百貨商場"
    },
    {
        "title": "Global Mall A9 環球購物中心",
        "address": "244新北市林口區文化三路一段2號",
        "telphone": "電話：02-2606-9668",
        "hours": "營業時間：11:00 - 22:00",
        "figure": "fig/AiCity-913-GlobalMall-2A9.jpg",
        "link": "https://www.twglobalmall.com/web/global/index.html?shopid=TWA5",
        "category": "購物中心"
    },
    {
        "title": "Mitsui Outlet Park 三井 Outlet",
        "address": "地址：24448新北市林口區文化三路一段356號",
        "telphone":	"電話：02-2600-9470",
        "hours": "營業時間：11:00 - 21:30 平日, 11:00 - 22:00 週末",
        "figure": "fig/AiCity-913-Outlet-2.png",
        "link": "https://www.mop.com.tw/linkou/tw/index.html",
        "category": "購物中心"
    },
    {
        "title": "Shine Square 昕境廣場",
        "address": "地址：244新北市林口區文化三路一段402巷2號",
        "telphone": "電話：02-2606-8252",
        "hours": "營業時間：11:00 - 21:30 平日, 11:00 - 22:00 週末",
        "figure": "fig/AiCity-913-ShineSquare-2.png",
        "link": "http://www.shine-square.com.tw/",
        "category": "購物中心"
    },
    {
        "title": "全聯福利中心 Pxmart - 林口復興店",
        "address": "地址：33375桃園市龜山區復興一路8號B1",
        "telphone": "電話：03-211-4286",
        "hours": "營業時間：11:00 - 21:30",
        "figure": "fig/AiCity-913-Pxmart-2.jpeg",
        "link": "http://www.pxmart.com.tw/px/index.px",
        "category": "生鮮超市"
    },
    {
        "title": "全聯福利中心 Pxmart - 龜山公園店",
        "address": "地址：33377桃園市龜山區文化二路82號",
        "telphone": "電話：03-211-4226",
        "hours": "營業時間：08:00 - 22:00",
        "figure": "fig/AiCity-913-Pxmart-2.jpeg",
        "link": "http://www.pxmart.com.tw/px/index.px",
        "category": "生鮮超市"
    },
    {
        "title": "全聯福利中心 Pxmart - 龜山文化店",
        "address": "地址：33377桃園市龜山區復興二路3號",
        "telphone": "電話：03-328-2656",
        "hours": "營業時間：08:30 - 22:30",
        "figure": "fig/AiCity-913-Pxmart-2.jpeg",
        "link": "http://www.pxmart.com.tw/px/index.px",
        "category": "生鮮超市"
    },
    {
        "title": "全聯福利中心 Pxmart - 龜山興華店",
        "address": "地址：333桃園市龜山區文化三路316號",
        "telphone": "電話：03-318-7015",
        "hours": "營業時間：08:00 - 22-00",
        "figure": "fig/AiCity-913-Pxmart-2.jpeg",
        "link": "http://www.pxmart.com.tw/px/index.px",
        "category": "生鮮超市"
    },
    {
        "title": "頂好超市Wellcome - 文德店",
        "address": "地址：333桃園市龜山區文德二路123號",
        "telphone": "電話：03-396-2570",
        "hours": "營業時間: 07:00 - 23:30",
        "figure": "fig/AiCity-913-Wellcome-2.jpg",
        "link": "http://www.wellcome.com.tw/",
        "category": "生鮮超市"
    },
    {
        "title": "頂好超市Wellcome - 復興店",
        "address": "地址：333桃園市龜山區復興一路222號",
        "telphone": "電話：03-328-8385",
        "hours": "營業時間：24小時",
        "figure": "fig/AiCity-913-Wellcome-2.jpg",
        "link": "http://www.wellcome.com.tw/",
        "category": "生鮮超市"
    },
    {
        "title": "家樂福 Carrefour - 林口店",
        "address": "地址：244新北市林口區文化二路一段559號",
        "telphone": "電話：080-026-6988",
        "hours": "營業時間: 09:00 - 23:00",
        "figure": "fig/AiCity-913-Carrefour-2.png",
        "link": "https://www.carrefour.com.tw/",
        "category": "生鮮超市"
    },
    {
        "title": "田倉超級市場",
        "address": "地址：333桃園市龜山區文興路30-42號",
        "telphone": "電話：03-328-8066",
        "hours": "營業時間：24 小時",
        "figure": "fig/AiCity-913-田倉-2.jpg",
        "link": "https://www.facebook.com/%E7%94%B0%E5%80%89%E7%94%9F%E9%AE%AE%E8%B6%85%E5%B8%82-1467674163531170/",
        "category": "生鮮超市"
    },
    {
        "title": "家佳樂食品五金大賣場 - 龜山二店",
        "address": "地址:333桃園市龜山區文化二路102-2號",
        "telphone": "電話:03-3979822",
        "hours": "營業時間:08:30 - 22:30",
        "figure": "fig/AiCity-913-家佳樂-2.png",
        "link": "#",
        "category": "生鮮超市"
    },
    {
        "title": "Costco 好市多 - 桃園南崁店",
        "address": "地址:338桃園市蘆竹區南崁路一段369號",
        "telphone": "電話:02-449-9909",
        "hours": "營業時間:10:00 - 21:30",
        "figure": "fig/AiCity-913-Costco.jpg",
        "link": "https://www.costco.com.tw/",
        "category": "生鮮超市"
    },
    {
        "title": "Costco 好市多 - 新莊店",
        "address": "地址:242新北市新莊區建國一路138號",
        "telphone": "電話:02-449-9909",
        "hours": "營業時間:10:00 - 21:30",
        "figure": "fig/AiCity-913-Costco.jpg",
        "link": "https://www.costco.com.tw/",
        "category": "生鮮超市"
    },
    {
        "title": "文德路黃昏市場",
        "address": "地址：333桃園市龜山區文德路66-50號",
        "telphone": "電話：",
        "hours": "營業時間：",
        "figure": "",
        "link": "#",
        "category": "水果市場"
    },
    {
        "title": "龜山黃昏市場",
        "address": "地址：333桃園市龜山區忠義路二段522號",
        "telphone": "電話：",
        "hours": "營業時間：13:00 - 19:00",
        "figure": "",
        "link": "#",
        "category": "水果市場"
    },
    {
        "title": "林口黃昏市場",
        "address": "地址：244新北市林口區文化二路一段277號",
        "telphone": "電話：",
        "hours": "營業時間：14:00 - 21:00",
        "figure": "",
        "link": "#",
        "category": "水果市場"
    },
    {
        "title": "林口區東勢公有市場",
        "address": "地址：244新北市林口區麗園一街35號",
        "telphone": "電話：",
        "hours": "營業時間：06:00 - 14:00",
        "figure": "",
        "link": "#",
        "category": "水果市場"
    },
    {
        "title": "LG中和旗艦專售店-好漾生活館",
        "address": "地址：23551新北市中和區中正路876號 1樓",
        "telphone":	"電話：02-2221-6188",
        "hours": "營業時間：11:00 - 21:00",
        "figure": "fig/AiCity-913-LG-2.jpg",
        "link": "https://lg-banner-store.business.site/",
        "category": "電器產品"
    },
    {
        "title": "Samsung 三星智慧館 - 中和永和",
        "address": "地址：23447新北市永和區中和路537-1號",
        "telphone":	"電話：02-2927-3258",
        "hours": "營業時間：11:00 -21:00",
        "figure": "fig/Aicity-913-Samsung-2.png",
        "link": "https://www.samsung.com/tw/",
        "category": "電器產品"
    },
    {
        "title": "集雅社",
        "address": "地址：338桃園市蘆竹區中正路1號",
        "telphone":	"電話：03-263-1288",
        "hours": "營業時間：10:00 - 22:00",
        "figure": "fig/AiCity-913-集雅社-2.jpg",
        "link": "https://www.gseven.com.tw/",
        "category": "電器產品"
    },
    {
        "title": "燦坤3C 新長庚店",
        "address": "地址：333, 桃園市龜山區文化三路383號",
        "telphone":	"電話：03-318-2727",
        "hours": "營業時間：11:00 - 21:30",
        "figure": "fig/AiCity-913-燦坤-2.jpg",
        "link": "http://www.tk3c.com/index.aspx",
        "category": "電器產品"
    },
    {
        "title": "全國電子",
        "address": "地址：333桃園市龜山區文化二路30之12號",
        "telphone":	"電話：03-318-1591",
        "hours": "營業時間：11:00 -22:00",
        "figure": "fig/AiCity-913-全國-2.png",
        "link": "http://www.elifemall.com.tw/allnewweb/index.php",
        "category": "電器產品"
    },
    {
        "title": "宜得利家居 林口店",
        "address": "地址：24459新北市林口區文化三路二段16號家樂福旁",
        "telphone":	"電話：02-8601-8193",
        "hours": "營業時間：10:00 - 22:00",
        "figure": "fig/AiCity-913-宜得利-2.png",
        "link": "https://www.nitori.com.tw/",
        "category": "傢俱裝飾"
    },
    {
        "title": "特力屋 新莊店",
        "address": "地址：242新北市新莊區中正路620號",
        "telphone":	"電話：02-2906-1212",
        "hours": "營業時間：10:30 - 22:00",
        "figure": "fig/AiCity-913-特力屋-2.png",
        "link": "https://www.trplus.com.tw/",
        "category": "傢俱裝飾"
    },
    {
        "title": "特力屋 林口中山店（社區店）",
        "address": "地址：24446新北市林口區中山路248號B1",
        "telphone":	"電話：02-8601-9228",
        "hours": "營業時間：10:30 - 22:00",
        "figure": "fig/AiCity-913-特力屋-2.png",
        "link": "https://www.trplus.com.tw/",
        "category": "傢俱裝飾"
    },
    {
        "title": "IKEA宜家家居全新桃園店",
        "address": "地址：320 桃園市中壢區青埔里高鐵站前東路一段1號",
        "telphone":	"電話：02-412-8869 ext 3",
        "hours": "營業時間：10:00 - 22:00",
        "figure": "fig/AiCity-913-ikea-2.jpg",
        "link": "https://www.ikea.com.tw/zh",
        "category": "傢俱裝飾"
    },
    {
        "title": "IKEA宜家家居新莊店",
        "address": "地址：242新北市新莊區中正路1號3樓",
        "telphone":	"電話：02-2276-5388",
        "hours": "營業時間：10:00 - 22:00",
        "figure": "fig/AiCity-913-ikea-2.jpg",
        "link": "https://www.ikea.com.tw/zh",
        "category": "傢俱裝飾"
    },
    {
        "title": "7-Eleven 統一超商 富寓門市",
        "address": "地址：333桃園市龜山區文德路80號82號",
        "telphone": "電話：03-327-5230",
        "hours": "營業時間：24H",
        "figure": "fig/AiCity-913-711-2.png",
        "link": "https://www.7-11.com.tw/",
        "category": "便利商店"
    },
    {
        "title": "7-Eleven 統一超商 樂善門市",
        "address": "地址：333桃園市龜山區文明路131號",
        "telphone": "電話：03-318-2345",
        "hours": "營業時間：24H",
        "figure": "fig/AiCity-913-711-2.png",
        "link": "https://www.7-11.com.tw/",
        "category": "便利商店"
    },
    {
        "title": "OK Mart  OK超商 龜山文明店",
        "address": "地址：333桃園市龜山區文明路71之2號",
        "telphone": "電話：03-263-1550",
        "hours": "營業時間：24H",
        "figure": "fig/AiCity-913-ok-2.png",
        "link": "https://www.okmart.com.tw/",
        "category": "便利商店"
    },
    {
        "title": "Family Mart 全家便利商店 龜山文德店",
        "address": "地址：333桃園市龜山區文德路76號",
        "telphone": "電話：03-397-2063",
        "hours": "營業時間：24H",
        "figure": "fig/AiCity-913-FamilyMart-2.jpg",
        "link": "https://www.family.com.tw/Marketing/index.aspx",
        "category": "便利商店"
    },
    {
        "title": "林口花市",
        "address": "地址：244新北市林口區文化一路二段100巷",
        "telphone": "電話：",
        "hours": "營業時間：09:00 - 17:30",
        "figure": "fig/AiCity-913-林口花市.jpeg",
        "link": "#",
        "category": "花卉市場"
    },
    {
        "title": "桃園假日花市",
        "address": "地址：330桃園市桃園區壽山路100號",
        "telphone": "電話：",
        "hours": "營業時間：週六&週日：07:30 - 18:00",
        "figure": "fig/AiCity-913-桃園假日花市.jpg",
        "link": "#",
        "category": "花卉市場"
    },
    {
        "title": "新莊花卉的休閒農園",
        "address": "地址：238新北市樹林區俊英街63巷1號",
        "telphone": "電話：",
        "hours": "營業時間：週一～週六：08:45 - 17:30",
        "figure": "fig/AiCity-913-新莊花市.jpg",
        "link": "#",
        "category": "花卉市場"
    },
    {
        "title": "加州乾洗-林口長庚",
        "address": "地址：333桃園市龜山區文化二路34巷55號",
        "telphone": "電話：03-318-0638",
        "hours": "營業時間：10:00 - 22:00",
        "figure": "fig/AiCity-913-加州-2.jpg",
        "link": "http://www.caldry.tw/service_pricinglist.php",
        "category": "洗改衣服"
    },
    {
        "title": "洗多屋投幣洗衣生活館",
        "address": "地址：333桃園市龜山區文安街 1 5號",
        "telphone": "電話：0921-196-430",
        "hours": "營業時間：24 H",
        "figure": "fig/AiCity-913-洗多屋-2.png",
        "link": "https://www.mywashouse.com/",
        "category": "洗改衣服"
    },
    {
        "title": "一條龍改衣褲",
        "address": "地址：333桃園市龜山區復興街164-1號",
        "telphone": "電話：03-327-1321",
        "hours": "營業時間：08:30 - 13:00, 14:00-20:30",
        "figure": "",
        "link": "#",
        "category": "洗改衣服"
    },
    {
        "title": "文德二路修改衣服換拉鍊",
        "address": "地址：333 桃園龜山區文德二路148巷17號1樓",
        "telphone": "電話：",
        "hours": "營業時間：",
        "figure": "",
        "link": "#",
        "category": "洗改衣服"
    },
    {
        "title": "幸福修鞋站（魏師傅）",
        "address": "地址：333桃園市龜山區文德二路17號",
        "telphone": "電話：0956-606-178, 0982-701-178",
        "hours": "營業時間： 07:00 - 12:00",
        "figure": "fig/AiCity-913-幸福修鞋.jpg",
        "link": "https://www.facebook.com/%E9%AD%8F%E5%B8%AB%E7%88%B6%E5%B9%B8%E7%A6%8F%E4%BF%AE%E9%9E%8B%E7%AB%99-105488231059307/",
        "category": "洗改衣服"
    },
    {
        "title": "四季田鮮果批發量販廣場",
        "address": "地址：333桃園市龜山區文化三路500號",
        "telphone": "電話：03-318-3068",
        "hours": "營業時間：07:00 - 22:00",
        "figure": "fig/AiCity-913-四季田-2.png",
        "link": "https://www.facebook.com/fsf3500",
        "category": "水果市場"
    },
    {
        "title": "一牛車水果行",
        "address": "地址：333桃園市龜山區文化二路175號",
        "telphone": "電話：03-397-0119",
        "hours": "營業時間：08:00 - 23:00",
        "figure": "",
        "link": "",
        "category": "水果市場"
    },
    {
        "title": "100 元剪髮 - 名藝美髮工作坊",
        "address": "地址：33375 桃園市龜山區文善街37號",
        "telphone": "電話：",
        "hours": "營業時間：",
        "figure": "",
        "link": "#",
        "category": "髮廊美容"
    },
    {
        "title": "100 元剪髮 - 老師傅理髮 ",
        "address": "地址：33375 桃園市龜山區文德二路135號",
        "telphone": "電話：",
        "hours": "營業時間：09:00 - 20:00",
        "figure": "",
        "link": "#",
        "category": "髮廊美容"
    },
    {
        "title": "MKS洛依髮集",
        "address": "地址：333桃園市龜山區文德二路138巷15號",
        "telphone": "電話：03-397-9965",
        "hours": "營業時間：11:00 - 20:00",
        "figure": "fig/AiCity-913-MKS-2.jpeg",
        "link": "https://www.facebook.com/mkssalon/",
        "category": "髮廊美容"
    },
    {
        "title": "蒔代髮妝沙龍",
        "address": "地址：33375 桃園市龜山區文德二路92號",
        "telphone": "電話：",
        "hours": "營業時間：",
        "figure": "",
        "link": "＃",
        "category": "髮廊美容"
    },
    {
        "title": "菲主流髮妍",
        "address": "地址：333桃園市龜山區文安街30號",
        "telphone": "電話：03-327-4811",
        "hours": "營業時間：",
        "figure": "",
        "link": "＃",
        "category": "髮廊美容"
    },
    {
        "title": "QB House",
        "address": "地址：333桃園市龜山區復興一路8號地下一樓",
        "telphone": "電話：02-2558-9119",
        "hours": "營業時間：11:00 - 21:30",
        "figure": "fig/AiCity-913-QB-2.png",
        "link": "http://www.qbhouse.com/tw/search/detail.php?id=18&new=1",
        "category": "髮廊美容"
    },
    {
        "title": "100元剪髮",
        "address": "地址：333桃園市龜山區復興一路125號",
        "telphone": "電話：",
        "hours": "營業時間：12:00 - 20:30",
        "figure": "",
        "link": "＃",
        "category": "髮廊美容"
    },
    {
        "title": "康是美長庚門市",
        "address": "地址：333桃園市龜山區復興一路78號號1樓",
        "telphone": "電話：03-211-4974",
        "hours": "營業時間：08:00 - 23:00",
        "figure": "fig/AiCity-913-康是美-2.png",
        "link": "https://shop.cosmed.com.tw/",
        "category": "百貨商場"
    },
    {
        "title": "DAISO大創百貨",
        "address": "地址：333桃園市龜山區復興一路8號B1",
        "telphone": "電話：03-318-2792",
        "hours": "營業時間：11:00 - 21:30",
        "figure": "fig/AiCity-913-大創-2.png",
        "link": "https://www.daiso.com.tw/company/about",
        "category": "百貨商場"
    },
    {
        "title": "臺灣彩劵",
        "address": "地址：333桃園市龜山區文山街25號",
        "telphone": "電話：",
        "hours": "營業時間：",
        "figure": "fig/AiCity-913-台灣彩劵.png",
        "link": "#",
        "category": "日常生活"
    },
    {
        "title": "左外野藥局",
        "address": "地址：333桃園市龜山區文光街6號1樓",
        "telphone": "電話：03-327-1503",
        "hours": "營業時間：10:00 - 21:00 (週五公休）",
        "figure": "fig/AiCity-913-左外野-2.jpeg",
        "link": "https://www.facebook.com/%E5%B7%A6%E5%A4%96%E9%87%8E%E8%97%A5%E5%B1%80-114189630218930/",
        "category": "日常生活"
    },
    {
        "title": "金玉堂文具批發廣場 - 長庚店",
        "address": "地址：333桃園市龜山區文化二路17號",
        "telphone": "電話：03-328-8259",
        "hours": "營業時間：09:00 - 22:00",
        "figure": "fig/AiCity-913-金玉堂-2.jpeg",
        "link": "http://www.jytnet.com.tw/mobile/index.aspx",
        "category": "日常生活"
    },
    {
        "title": "蚤樂趣 龜山-樂善店",
        "address": "地址：333桃園市龜山區文化一路30號",
        "telphone": "電話：03-327-7551",
        "hours": "營業時間：07:00 - 19:00",
        "figure": "fig/AiCity-913-蚤樂趣-2.jpeg",
        "link": "https://www.sofun.com.tw/usedcust/index.php?t=1&npg=&clear=Y",
        "category": "日常生活"
    },
    {
        "title": "茂城五金",
        "address": "地址：333桃園市龜山區文化一路30號",
        "telphone": "電話：03-327-7551",
        "hours": "營業時間：07:00 - 19:00",
        "figure": "fig/AiCity-913-茂城-2.jpeg",
        "link": "https://www.facebook.com/Lee8888888888/",
        "category": "日常生活"
    },
    {
        "title": "晉茂生活科技五金超商",
        "address": "地址：33377台灣桃園市龜山區文化二路191號",
        "telphone": "電話：03-396-1328",
        "hours": "營業時間：",
        "figure": "fig/AiCity-913-晉茂-2.png",
        "link": "http://www.diylife.com.tw/front/bin/home.phtml",
        "category": "日常生活"
    },
    {
        "title": "特麗自助洗車",
        "address": "地址：33382桃園市龜山區文化一路44號",
        "telphone": "電話：080-088-2717",
        "hours": "營業時間：24H",
        "figure": "fig/AiCity-913-特麗-2.jpg",
        "link": "#",
        "category": "日常生活"
    },
    {
        "title": "華夏鎖店",
        "address": "地址：333桃園市龜山區文化二路34巷57號",
        "telphone": "電話：03-318-2208",
        "hours": "營業時間：09:30 - 21:30 ",
        "figure": "fig/AiCity-913-華夏鎖店.jpeg",
        "link": "https://locksmith-1418.business.site/",
        "category": "日常生活"
    },
    {
        "title": "久久鎖印行",
        "address": "地址：333桃園市龜山區文山街12號",
        "telphone": "電話：03-327-2519, 0920-876-232",
        "hours": "營業時間： ",
        "figure": "fig/AiCity-913-久久鎖印行.png",
        "link": "#",
        "category": "日常生活"
    },
    {
        "title": "39元五金百貨",
        "address": "地址：333桃園龜山區文化二路64號",
        "telphone": "電話：",
        "hours": "營業時間：",
        "figure": "fig/AiCity-918-39百貨.jpg",
        "link": "#",
        "category": "日常生活"
    },
    {
        "title": "bibi woo 比比屋",
        "address": "地址：333 桃園市龜山區文山街23號",
        "telphone": "電話：03-397-4330",
        "hours": "營業時間：10:00 - 18:00",
        "figure": "fig/AiCity-913-比比屋.jpg",
        "link": "https://bibi-woo.business.site/?utm_source=gmb&utm_medium=referral",
        "category": "日常生活"
    },
    {
        "title": "汪旺寵物坊",
        "address": "地址：333桃園市龜山區文山街",
        "telphone": "電話：03-318-0875",
        "hours": "營業時間：",
        "figure": "fig/",
        "link": "＃",
        "category": "日常生活"
    },
    {
        "title": "TaiMall 台茂購物中心",
        "address": "地址：338桃園市蘆竹區南崁路一段112號",
        "telphone": "電話：03-311-1234",
        "hours": "營業時間： 11:00 - 22:00",
        "figure": "fig/AiCity-913-taimall.gif",
        "link": "https://www.taimall.com.tw/",
        "category": "購物中心"
    },
    {
        "title": "SOGO 中壢遠東百貨",
        "address": "地址：320桃園市中壢區元化路357號",
        "telphone": "電話：03-422-7000",
        "hours": "營業時間： 11:00 - 21:30",
        "figure": "fig/AiCity-913-Sogo.jpeg",
        "link": "https://www.sogo.com.tw/",
        "category": "購物中心"
    },
    {
        "title": "MetroWalk 大江國際購物中心",
        "address": "地址：320桃園市中壢區中園路二段501號",
        "telphone": "電話：03-468-0999",
        "hours": "營業時間： 11:00 - 22:00",
        "figure": "fig/AiCity-913-dagain.jpg",
        "link": "https://www.metrowalk.com.tw/newweb/home.aspx",
        "category": "購物中心"
    },
    {
        "title": "",
        "address": "地址：",
        "telphone": "電話：",
        "hours": "營業時間：",
        "figure": "fig/",
        "link": "",
        "category": ""
    }
]