[
    {
        "title": "千葉火鍋",
        "address": "地址：333桃園市龜山區復興一路267號",
        "telphone": "電話：03-397-1136",
        "hours": "營業時間：11:00 -23:00",
        "figure": "fig/AiCity-910-千葉火鍋-02.jpeg",
        "link": "http://chien-yen.com.tw/",
        "category": "龜山區-復興一路"
    },
    {
        "title": "一番地-壽喜燒",
        "address": "地址：333桃園市龜山區復興一路368-3號",
        "telphone": "電話：03-328-8869",
        "hours": "營業時間：11:00 - 22:00",
        "figure": "fig/AiCity-910-一番地-02.png",
        "link": "https://www.sukiyakino1.com.tw/locational_Linkou.html",
        "category": "龜山區-復興一路"
    },
    {
        "title": "鍋台銘-時尚湯鍋",
        "address": "地址：333桃園市龜山區文化二路91號",
        "telphone": "電話：03-397-3999",
        "hours": "營業時間：10:00 - 03:00",
        "figure": "fig/AiCity-910-鍋台銘-02.jpeg",
        "link": "https://www.guotaiming-hotpot.com/",
        "category": "龜山區-華亞園區"
    },
    {
        "title": "家芬火鍋",
        "address": "地址：333桃園市龜山區文化三路551-17號",
        "telphone":	"電話：03-397-3909",
        "hours": "營業時間：11:30 - 15:00, 16:50 - 22:30",
        "figure": "fig/AiCity-910-家芬火鍋-02.jpeg",
        "link": "#",
        "category": "龜山區-華亞園區"
    },
    {
        "title": "六扇門-時尚湯鍋",
        "address": "地址：333桃園市龜山區文化一路36號",
        "telphone": "電話：03-318-6666",
        "hours": "營業時間：11:30 - 23:00",
        "figure": "fig/AiCity-910-六扇門-02.jpeg",
        "link": "https://hot-pot-restaurant-2357.business.site/",
        "category": "龜山區-復興一路"
    },
    {
        "title": "港龘港式飲茶",
        "address": "地址：333桃園市龜山區文化三路311號",
        "telphone": "電話：03-318-5155",
        "hours": "營業時間: 10:30 - 15:00, 16:50 - 21:00",
        "figure": "fig/AiCity-910-港龘港式飲茶-02.png",
        "link": "https://www.facebook.com/ganglonglonglong/",
        "category": "龜山區-復興一路"
    },
    {
        "title": "貴族世家",
        "address": "地址：333桃園市龜山區復興北路75號",
        "telphone": "電話：03-318-0800",
        "hours": "營業時間：11:00 - 22:00",
        "figure": "fig/AiCity-910-貴族世家-02.jpeg",
        "link": "http://www.noble.com.tw/index.php/menu/other-charges",
        "category": "龜山區-復興一路"
    },
    {
        "title": "厚切牛排",
        "address": "地址：333桃園市龜山區文化一路26號",
        "telphone": "電話：03-397-8729",
        "hours": "營業時間：11:00 - 22:00",
        "figure": "fig/AiCity-910-厚切牛排-02.jpeg",
        "link": "http://www.thicklycut.com.tw/%E5%88%86%E5%BA%97%E4%BB%8B%E7%B4%B9/store9.html",
        "category": "龜山區-復興一路"
    },
    {
        "title": "孫東寶台式牛排",
        "address": "地址：333桃園市龜山區文化二路41號",
        "telphone": "電話：03-327-0099",
        "hours": "營業時間：11:00 - 21:00",
        "figure": "fig/AiCity-910-孫東寶台式牛排-02.png",
        "link": "http://www.xn--98som070a.tw/menu.html",
        "category": "龜山區-華亞園區"
    },
    {
        "title": "洋朵義式廚坊",
        "address": "地址：333桃園市龜山區復興一路8號",
        "telphone": "電話：03-328-1956",
        "hours": "營業時間：11:00 - 21:50",
        "figure": "fig/AiCity-910-洋朵義式廚坊-02.jpeg",
        "link": "https://www.yentlpasta.com.tw/",
        "category": "龜山區-復興一路"
    },
    {
        "title": "布蕾特義式餐廳",
        "address": "地址：333桃園市龜山區文化二路191-1號",
        "telphone": "電話：03-397-3673",
        "hours": "營業時間：11:30 - 14:30, 17:00 - 21:00",
        "figure": "fig/AiCity-910-布蕾特義式餐廳-02.jpg",
        "link": "https://website--589672324944254470136-restaurant.business.site/",
        "category": "龜山區-華亞園區"
    },
    {
        "title": "達美樂 Domino's Pizza",
        "address": "地址：333桃園市龜山區文化二路37號",
        "telphone": "電話：03-397-2252",
        "hours": "營業時間：11:00 - 22:00",
        "figure": "fig/AiCity-910-達美樂-02.jpeg",
        "link": "https://www.4125252.com.tw/",
        "category": "龜山區-復興一路"
    },
    {
        "title": "來碗拉麵",
        "address": "地址：333桃園市龜山區文化二路153號",
        "telphone": "電話：03-328-2255",
        "hours": "營業時間: 10:30 - 22:00",
        "figure": "fig/AiCity-910-來碗拉麵-02.jpeg",
        "link": "https://www.facebook.com/pages/category/Food---Beverage-Company/%E4%BE%86%E7%A2%97%E6%8B%89%E9%BA%B5-%E6%9E%97%E5%8F%A3%E5%BA%97-843813859063434/",
        "category": "龜山區-華亞園區"
    },
    {
        "title": "11番町豚骨拉麵",
        "address": "地址：333桃園市龜山區文化三路106-1號",
        "telphone": "電話：03-396-1370",
        "hours": "營業時間：11:00 - 14:00, 17:00 - 20:30",
        "figure": "fig/AiCity-910-11番町豚骨拉麵-02.jpeg",
        "link": "https://www.facebook.com/11fantingming/",
        "category": "龜山區-復興一路"
    },
    {
        "title": "合浦刀切麵食",
        "address": "地址：333桃園市龜山區文化三路560號",
        "telphone": "電話： 03-397-8852",
        "hours": "營業時間：11:00 - 21:00",
        "figure": "fig/AiCity-910-合浦刀切麵食-02.jpeg",
        "link": "#",
        "category": "龜山區"
    },
    {
        "title": "永康豬腳爌肉飯專賣",
        "address": "地址：333桃園市龜山鄉文化三路551號",
        "telphone": "電話：03-328-8585",
        "hours": "營業時間：10:30 - 21:00",
        "figure": "fig/AiCity-910-永康豬腳爌肉飯-02.png",
        "link": "https://www.tp5757.com.tw/",
        "category": "龜山區-華亞園區"
    },
    {
        "title": "TINA廚房",
        "address": "地址：333桃園市龜山區文化三路646號",
        "telphone": "電話：03-318-0607",
        "hours": "營業時間：08:00 - 21:30",
        "figure": "fig/AiCity-910-TINA廚房-02.jpeg",
        "link": "http://www.organicyam.com.tw/store/store_1.aspx?storeid=28",
        "category": "龜山區-華亞園區"
    },
    {
        "title": "嚐嚐九九",
        "address": "地址：333桃園市龜山區文化七路175號",
        "telphone": "電話：03-396-3223",
        "hours": "營業時間：11:00 - 13:30, 17:00 - 21:00",
        "figure": "fig/AiCity-910-嚐嚐九九-02.jpeg",
        "link": "http://enjoy99.com.tw/",
        "category": "龜山區-華亞園區"
    },
    {
        "title": "STARBUCKS 星巴克-林口門市",
        "address": "地址：330桃園市龜山區復興一路202號",
        "telphone": "電話：03-327-7817",
        "hours": "營業時間：06:30 - 22:00",
        "figure": "fig/AiCity-910-星巴克-02.png",
        "link": "https://www.starbucks.com.tw/home/index.jspx?r=54",
        "category": "龜山區-復興一路"
    },
    {
        "title": "林口長庚-美食街",
        "address": "地址：333桃園市龜山區復興街5號",
        "telphone":	"電話：",
        "hours": "營業時間：11:00 - 21:00",
        "figure": "fig/AiCity-910-林口長庚-美食街-02.jpeg",
        "link": "http://www.chang-gung.com/about.aspx?id=115&bid=9",
        "category": "龜山區-復興一路"
    },
    {
        "title": "瓦城泰國料理-A8店",
        "address": "地址：2F 饗悠活 22018",
        "telphone": "電話：03-318-6598",
        "hours": "營業時間：11:00 - 21:00",
        "figure": "fig/AiCity-910-瓦城泰國料理-02.png",
        "link": "https://www.thaitown.com.tw/",
        "category": "A8-GlobalMall"
    },
    {
        "title": "朱記 餡餅粥",
        "address": "地址：2F 饗悠活 22012",
        "telphone": "電話：03-318-1109",
        "hours": "營業時間：11:00 - 22:00",
        "figure": "fig/AiCity-910-朱記-02.png",
        "link": "https://www.zhuji.com.tw/#2",
        "category": "A8-GlobalMall"
    },
    {
        "title": "洋朵義式廚坊",
        "address": "地址：2F 饗悠活 22003",
        "telphone": "電話：03-328-1956",
        "hours": "營業時間：11:00 - 21:50",
        "figure": "fig/AiCity-910-洋朵義式廚坊-02.jpeg",
        "link": "https://www.yentlpasta.com.tw/",
        "category": "A8-GlobalMall"
    },
    {
        "title": "新葡苑",
        "address": "地址：2F 饗悠活 22014",
        "telphone": "電話：03-397-2928",
        "hours": "營業時間：11:00 - 14:30, 17:00 - 21:30",
        "figure": "fig/AiCity-910-新葡苑-02.jpeg",
        "link": "http://www.shinpuyuan-group.com/ch/shinpu/menu.aspx?Pc=27",
        "category": "A8-GlobalMall"
    },
    {
        "title": "勝博殿-日式炸豬排",
        "address": "地址：2F 饗悠活 22002",
        "telphone": "電話：03-263-0613",
        "hours": "營業時間：11:00 - 22:00",
        "figure": "fig/AiCity-910-勝博殿-02.jpg",
        "link": "http://www.saboten.com.tw/",
        "category": "A8-GlobalMall"
    },
    {
        "title": "瓦城泰國料理-三井店",
        "address": "地址：新北市林口區文化三路一段356號2樓",
        "telphone": "電話：02-2606-9166",
        "hours": "營業時間：11:00 - 15:00, 17:00 - 21:30",
        "figure": "fig/AiCity-910-瓦城泰國料理-02.png",
        "link": "https://www.thaitown.com.tw/",
        "category": "林口區"
    },
    {
        "title": "欣葉小聚-三井店",
        "address": "地址：新北市林口區文化三路一段356號2樓",
        "telphone": "電話：02-2608-4988",
        "hours": "營業時間：11:00 - 15:00, 17:00 - 21:30",
        "figure": "fig/AiCity-910-欣葉小聚-02.png",
        "link": "https://www.shinyeh.com.tw/content/zh/brand/Index.aspx?BrandId=3",
        "category": "林口區"
    },
    {
        "title": "點水樓-三井店",
        "address": "地址：新北市林口區文化三路一段356號2樓",
        "telphone": "電話：02-2608-6969",
        "hours": "營業時間：11:00 - 22:00",
        "figure": "fig/AiCity-910-點水樓-02.jpeg",
        "link": "http://www.dianshuilou.com.tw/Intro_7_a.html",
        "category": "林口區"
    },
    {
        "title": "築地樂樂町",
        "address": "地址：244新北市林口區文化三路二段67號",
        "telphone": "電話：02-2608-9487",
        "hours": "營業時間：11:00 - 14:00, 17:30 - 21:00",
        "figure": "fig/AiCity-910-築地樂樂町-02.jpeg",
        "link": "https://www.facebook.com/LakuLakuMachi/",
        "category": "林口區"
    },
    {
        "title": "村民食堂",
        "address": "地址：330桃園市桃園區中正路1078號",
        "telphone": "電話：03-316-3838",
        "hours": "營業時間：11:00 - 21:00",
        "figure": "fig/AiCity-910-村民食堂-02.jpeg",
        "link": "http://villager.com.tw/",
        "category": "桃園區"
    },
    {
        "title": "河馬水產",
        "address": "地址：320桃園市中壢區高鐵北路二段2號",
        "telphone": "電話：03-287-3600",
        "hours": "營業時間：11:00&nbsp; - 21:30",
        "figure": "fig/AiCity-910-河馬水產-02.jpeg",
        "link": "https://www.facebook.com/homaseafood",
        "category": "桃園區"
    },
    {
        "title": "阿基師藝文茶樓-桃園福容飯店",
        "address": "地址：330桃園市桃園區大興西路一段200號",
        "telphone": "電話：03-326-5800",
        "hours": "營業時間：06:30 - 10:00, 11:30 - 14:00, 17:30 - 21:00",
        "figure": "fig/AiCity-910-阿基師藝文茶樓-02.jpeg",
        "link": "https://www.fullon-hotels.com.tw/ty/",
        "category": "A8-GlobalMall"
    },
    {
        "title": "圓明園-花園海鮮會館",
        "address": "地址：242新北市新莊區中原路399號",
        "telphone": "電話：02-8992-5566",
        "hours": "營業時間：11:30 - 14:00, 17:30 - 21:00",
        "figure": "fig/AiCity-910-圓明園-02.jpeg",
        "link": "https://www.facebook.com/%E5%9C%93%E6%98%8E%E5%9C%92%E8%8A%B1%E5%9C%92%E6%B5%B7%E9%AE%AE%E6%9C%83%E9%A4%A8%E5%8E%9F%E5%96%9C%E5%B8%82%E5%A4%9A%E9%A4%90%E5%BB%B3-106254614063995/",
        "category": "新莊區"
    }
]